[
    {
        "Gateway_ID": "000800fffe4bc877",
        "name": "Galdakao Andra Mari S/N:21713706",
        "status": "OK",
        "altitude": 143,
        "latitude": 43.23445,
        "longitude": -2.83441,
        "UL_Frame_Cnt": "153481.67",
        "Lost_Frame_Cnt": 0,
        "Avr_RSSI_[dBm]": -115.83,
        "Avr_SNR_[dB]": -3.27
    },
    {
        "Gateway_ID": "000800fffe4bc4bb",
        "name": "Galdakao Aranzelai, 1 indoor",
        "status": "OK",
        "altitude": 0,
        "latitude": 43.2346701487839,
        "longitude": -2.85004080332071,
        "UL_Frame_Cnt": "1812.61",
        "Lost_Frame_Cnt": 0,
        "Avr_RSSI_[dBm]": -109.48,
        "Avr_SNR_[dB]": -5.26
    },
    {
        "Gateway_ID": "000800fffe4bc869",
        "name": "Galdakao Dep\u00f3sito Erletxes",
        "status": "OK",
        "altitude": 186,
        "latitude": 43.2415,
        "longitude": -2.79557,
        "UL_Frame_Cnt": "10420.67",
        "Lost_Frame_Cnt": 0,
        "Avr_RSSI_[dBm]": -120.15,
        "Avr_SNR_[dB]": -7.35
    },
    {
        "Gateway_ID": "000800fffe4bc4cc",
        "name": "Galdakao ETS Ariz S/N: 21700449",
        "status": "OK",
        "altitude": 0,
        "latitude": 43.2396557057567,
        "longitude": -2.87940401874672,
        "UL_Frame_Cnt": "2798.07",
        "Lost_Frame_Cnt": 0,
        "Avr_RSSI_[dBm]": -130.22,
        "Avr_SNR_[dB]": -11.17
    },
    {
        "Gateway_ID": "000800fffe4bc884",
        "name": "Galdakao ETS Usansolo S/N: 21713719",
        "status": "OK",
        "altitude": 5,
        "latitude": 43.2176,
        "longitude": -2.83229,
        "UL_Frame_Cnt": "31193.75",
        "Lost_Frame_Cnt": 0,
        "Avr_RSSI_[dBm]": -110.25,
        "Avr_SNR_[dB]": -0.11
    },
    {
        "Gateway_ID": "000800fffe4bc872",
        "name": "Galdakao ETS Zuhatzu S/N: 21713700",
        "status": "OK",
        "altitude": 59,
        "latitude": 43.22889,
        "longitude": -2.85373,
        "UL_Frame_Cnt": "130111.35",
        "Lost_Frame_Cnt": 0,
        "Avr_RSSI_[dBm]": -113.24,
        "Avr_SNR_[dB]": -2.47
    },
    {
        "Gateway_ID": "000800fffe4bc86d",
        "name": "Galdakao Fronton Bekea",
        "status": "OK",
        "altitude": 83,
        "latitude": 43.22866,
        "longitude": -2.82508,
        "UL_Frame_Cnt": "37891.12",
        "Lost_Frame_Cnt": 0,
        "Avr_RSSI_[dBm]": -119.06,
        "Avr_SNR_[dB]": -6.57
    },
    {
        "Gateway_ID": "000800fffe4bc887",
        "name": "Galdakao Hospital",
        "status": "OK",
        "altitude": 92,
        "latitude": 33.96135,
        "longitude": -2.21416,
        "UL_Frame_Cnt": "52631.34",
        "Lost_Frame_Cnt": 0,
        "Avr_RSSI_[dBm]": -109.51,
        "Avr_SNR_[dB]": 0.56
    },
    {
        "Gateway_ID": "000800fffe4bc870",
        "name": "Galdakao Olabarrieta S/N: 21713698",
        "status": "OK",
        "altitude": 80,
        "latitude": 43.236,
        "longitude": -2.86736,
        "UL_Frame_Cnt": "64503.44",
        "Lost_Frame_Cnt": 0,
        "Avr_RSSI_[dBm]": -116.79,
        "Avr_SNR_[dB]": -6.07
    },
    {
        "Gateway_ID": "000800fffe4bc879",
        "name": "Galdakao Polidep Elexalde S/N: 21713708",
        "status": "OK",
        "altitude": 153,
        "latitude": 43.23677,
        "longitude": -2.83377,
        "UL_Frame_Cnt": "130821.65",
        "Lost_Frame_Cnt": 0,
        "Avr_RSSI_[dBm]": -116.86,
        "Avr_SNR_[dB]": -4.0
    },
    {
        "Gateway_ID": "000800fffe4bc86c",
        "name": "Galdakao Polideportivo Urreta",
        "status": "OK",
        "altitude": 60,
        "latitude": 43.23435,
        "longitude": -2.84553,
        "UL_Frame_Cnt": "60422.08",
        "Lost_Frame_Cnt": 0,
        "Avr_RSSI_[dBm]": -110.22,
        "Avr_SNR_[dB]": -0.34
    },
    {
        "Gateway_ID": "000800fffe4bc880",
        "name": "Galdakao Sixta Etxea",
        "status": "OK",
        "altitude": 65,
        "latitude": 43.23344,
        "longitude": -2.85635,
        "UL_Frame_Cnt": "54221.18",
        "Lost_Frame_Cnt": 0,
        "Avr_RSSI_[dBm]": -115.3,
        "Avr_SNR_[dB]": -4.3
    },
    {
        "Gateway_ID": "000800fffe4bc87b",
        "name": "Galdakao Torrezabal Kulturetxea",
        "status": "OK",
        "altitude": 69,
        "latitude": 43.23168,
        "longitude": -2.84464,
        "UL_Frame_Cnt": "152252.94",
        "Lost_Frame_Cnt": 0,
        "Avr_RSSI_[dBm]": -109.5,
        "Avr_SNR_[dB]": -0.55
    },
    {
        "Gateway_ID": "000800fffe4bc875",
        "name": "Galdakao Udal Musika Eskola S/N: 21713703",
        "status": "OFF_OR_BACKHAUL_ISSUE",
        "altitude": 64,
        "latitude": 43.23159,
        "longitude": -2.84994,
        "UL_Frame_Cnt": "49649.18",
        "Lost_Frame_Cnt": 0,
        "Avr_RSSI_[dBm]": -110.41,
        "Avr_SNR_[dB]": -1.89
    },
    {
        "Gateway_ID": "000800fffe4bc863",
        "name": "Galdakao ayuntamiento",
        "status": "OK",
        "altitude": 72,
        "latitude": 43.23114,
        "longitude": -2.83991,
        "UL_Frame_Cnt": "106302.90",
        "Lost_Frame_Cnt": 0,
        "Avr_RSSI_[dBm]": -110.24,
        "Avr_SNR_[dB]": -0.96
    }
]